{
  "meta": {
    "export_date": "2025-07-11T16:00:00.000000",
    "total_sites": 22,
    "focus_area": "San Juan River Basin & Direct Tributaries",
    "bounds": {
      "north": 38.0,
      "south": 36.0,
      "east": -106.0,
      "west": -109.5
    },
    "data_source": "USGS National Water Information System",
    "last_updated": "2025-07-11",
    "notes": "Focused on San Juan River watershed: San Juan River mainstem, Animas River system, La Plata River, Piedra River, Los Pinos River, Florida River, and closely related Dolores River tributaries in SW Colorado"
  },
  "sites": [
    {
      "siteNo": "09342500",
      "name": "SAN JUAN RIVER AT PAGOSA SPRINGS, CO",
      "latitude": 37.2655,
      "longitude": -107.011,
      "state": "CO",
      "county": "Archuleta",
      "usgsUrl": "https://waterdata.usgs.gov/monitoring-location/09342500/"
    },
    {
      "siteNo": "09343000",
      "name": "WEST FORK SAN JUAN RIVER NEAR PAGOSA SPRINGS, CO",
      "latitude": 37.3239,
      "longitude": -106.963,
      "state": "CO",
      "county": "Archuleta",
      "usgsUrl": "https://waterdata.usgs.gov/monitoring-location/09343000/"
    },
    {
      "siteNo": "09349800",
      "name": "EAST FORK SAN JUAN RIVER NEAR PAGOSA SPRINGS, CO",
      "latitude": 37.3797,
      "longitude": -106.8628,
      "state": "CO",
      "county": "Archuleta",
      "usgsUrl": "https://waterdata.usgs.gov/monitoring-location/09349800/"
    },
    {
      "siteNo": "09354500",
      "name": "LOS PINOS RIVER AT LA BOCA, CO",
      "latitude": 37.0064,
      "longitude": -107.5897,
      "state": "CO",
      "county": "La Plata",
      "usgsUrl": "https://waterdata.usgs.gov/monitoring-location/09354500/"
    },
    {
      "siteNo": "09355500",
      "name": "SPRING CREEK AT LA BOCA, CO",
      "latitude": 37.0092,
      "longitude": -107.5928,
      "state": "CO",
      "county": "La Plata",
      "usgsUrl": "https://waterdata.usgs.gov/monitoring-location/09355500/"
    },
    {
      "siteNo": "09358000",
      "name": "ANIMAS RIVER AT SILVERTON, CO",
      "latitude": 37.8119,
      "longitude": -107.6642,
      "state": "CO",
      "county": "San Juan",
      "usgsUrl": "https://waterdata.usgs.gov/monitoring-location/09358000/"
    },
    {
      "siteNo": "09358550",
      "name": "CEMENT CREEK AT SILVERTON, CO",
      "latitude": 37.8089,
      "longitude": -107.6631,
      "state": "CO",
      "county": "San Juan",
      "usgsUrl": "https://waterdata.usgs.gov/monitoring-location/09358550/"
    },
    {
      "siteNo": "09359010",
      "name": "MINERAL CREEK AT SILVERTON, CO",
      "latitude": 37.8108,
      "longitude": -107.6622,
      "state": "CO",
      "county": "San Juan",
      "usgsUrl": "https://waterdata.usgs.gov/monitoring-location/09359010/"
    },
    {
      "siteNo": "09359020",
      "name": "ANIMAS RIVER BELOW SILVERTON, CO",
      "latitude": 37.8019,
      "longitude": -107.6533,
      "state": "CO",
      "county": "San Juan",
      "usgsUrl": "https://waterdata.usgs.gov/monitoring-location/09359020/"
    },
    {
      "siteNo": "09361500",
      "name": "ANIMAS RIVER AT DURANGO, CO",
      "latitude": 37.2803,
      "longitude": -107.8803,
      "state": "CO",
      "county": "La Plata",
      "usgsUrl": "https://waterdata.usgs.gov/monitoring-location/09361500/"
    },
    {
      "siteNo": "09362750",
      "name": "FLORIDA RIVER ABOVE LEMON RESERVOIR NEAR DURANGO, CO",
      "latitude": 37.4233,
      "longitude": -107.8369,
      "state": "CO",
      "county": "La Plata",
      "usgsUrl": "https://waterdata.usgs.gov/monitoring-location/09362750/"
    },
    {
      "siteNo": "09363500",
      "name": "ANIMAS RIVER NEAR CEDAR HILL, NM",
      "latitude": 37.0403,
      "longitude": -107.8769,
      "state": "NM",
      "county": "San Juan",
      "usgsUrl": "https://waterdata.usgs.gov/monitoring-location/09363500/"
    },
    {
      "siteNo": "09364010",
      "name": "ANIMAS RIVER BELOW AZTEC, NM",
      "latitude": 36.8236,
      "longitude": -108.0042,
      "state": "NM",
      "county": "San Juan",
      "usgsUrl": "https://waterdata.usgs.gov/monitoring-location/09364010/"
    },
    {
      "siteNo": "09364500",
      "name": "LA PLATA RIVER AT COLORADO-NEW MEXICO STATE LINE",
      "latitude": 37.0003,
      "longitude": -108.2042,
      "state": "NM",
      "county": "San Juan",
      "usgsUrl": "https://waterdata.usgs.gov/monitoring-location/09364500/"
    },
    {
      "siteNo": "09365000",
      "name": "SAN JUAN RIVER AT FARMINGTON, NM",
      "latitude": 36.7281,
      "longitude": -108.1814,
      "state": "NM",
      "county": "San Juan",
      "usgsUrl": "https://waterdata.usgs.gov/monitoring-location/09365000/"
    },
    {
      "siteNo": "09367500",
      "name": "LA PLATA RIVER NEAR FARMINGTON, NM",
      "latitude": 36.7511,
      "longitude": -108.1867,
      "state": "NM",
      "county": "San Juan",
      "usgsUrl": "https://waterdata.usgs.gov/monitoring-location/09367500/"
    },
    {
      "siteNo": "09367540",
      "name": "PIEDRA RIVER NEAR ARBOLES, CO",
      "latitude": 37.0422,
      "longitude": -107.4044,
      "state": "CO",
      "county": "Archuleta",
      "usgsUrl": "https://waterdata.usgs.gov/monitoring-location/09367540/"
    },
    {
      "siteNo": "09368000",
      "name": "SAN JUAN RIVER AT SHIPROCK, NM",
      "latitude": 36.7856,
      "longitude": -108.7309,
      "state": "NM",
      "county": "San Juan",
      "usgsUrl": "https://waterdata.usgs.gov/monitoring-location/09368000/"
    },
    {
      "siteNo": "09371010",
      "name": "SAN JUAN RIVER AT FOUR CORNERS, CO",
      "latitude": 37.0003,
      "longitude": -109.0456,
      "state": "CO",
      "county": "Montezuma",
      "usgsUrl": "https://waterdata.usgs.gov/monitoring-location/09371010/"
    },
    {
      "siteNo": "09379500",
      "name": "SAN JUAN RIVER NEAR BLUFF, UT",
      "latitude": 37.1906,
      "longitude": -109.5653,
      "state": "UT",
      "county": "San Juan",
      "usgsUrl": "https://waterdata.usgs.gov/monitoring-location/09379500/"
    },
    {
      "siteNo": "09166500",
      "name": "DOLORES RIVER AT DOLORES, CO",
      "latitude": 37.4706,
      "longitude": -108.4961,
      "state": "CO",
      "county": "Montezuma",
      "usgsUrl": "https://waterdata.usgs.gov/monitoring-location/09166500/"
    },
    {
      "siteNo": "09171100",
      "name": "DOLORES RIVER NEAR BEDROCK, CO",
      "latitude": 38.3461,
      "longitude": -108.8653,
      "state": "CO",
      "county": "Montrose",
      "usgsUrl": "https://waterdata.usgs.gov/monitoring-location/09171100/"
    }
  ]
}